{"places":[{"name":"Prince's Hot Chicken Shack","address":"123 Ewing Dr #3, Nashville, TN 37207","position":{"lat":36.230029,"lng":-86.761071},"image":"images/princes.jpg","yelpId":"princes-hot-chicken-shack-nashville"},{"name":"Bolton's Spicy Chicken & Fish","address":"624 Main St, Nashville, TN 37206","position":{"lat":36.173987,"lng":-86.761352},"image":"images/boltons.jpg","yelpId":"boltons-spicy-chicken-and-fish-nashville"},{"name":"Hattie B's - 19th Ave","address":"112 19th Ave S, Nashville, TN 37203","position":{"lat":36.151475,"lng":-86.79662},"image":"images/hattieb.jpg","yelpId":"hattie-bs-hot-chicken-nashville-2"},{"name":"Hattie B's - Charlotte Pike","address":"5209 Charlotte Pike, Nashville, TN 37209","position":{"lat":36.151617,"lng":-86.850751},"image":"images/hattieb_charlotte.jpg","yelpId":"hattie-bs-hot-chicken-nashville-3"},{"name":"400 Degrees Hot Chicken","address":"319 Peabody St Nashville, TN 37210","position":{"lat":36.155955,"lng":-86.773504},"image":"images/400degrees.jpg","yelpId":"400-degrees-hot-chicken-nashville"},{"name":"Hot Stuff","address":"1309 Bell Road Ste #218, Antioch, TN 37013","position":{"lat":36.047427,"lng":-86.676188},"image":"images/hotstuff.jpg","yelpId":"hot-stuff-spicy-chicken-and-fish-antioch"},{"name":"Pepperfire","address":"2821 Gallatin Pk, Nashville, TN 37216","position":{"lat":36.201791,"lng":-86.739681},"image":"images/pepperfire.jpg","yelpId":"pepperfire-nashville"},{"name":"Big Shake's Hot Chicken & Fish - Main","address":"1409 W Main St, Franklin, TN 37064","position":{"lat":35.912513,"lng":-86.887746},"image":"images/bigshakes.jpg","yelpId":"big-shakes-hot-chicken-and-fish-franklin"},{"name":"Big Shake's Hot Chicken & Fish - Murf. Rd","address":"1203 Murfreesboro Rd, Franklin, TN 37064","position":{"lat":35.91739,"lng":-86.828731},"image":"images/bigshakes_murf.jpg","yelpId":"big-shakes-hot-chicken-and-fish-franklin-2"},{"name":"Paradise Park Trailer Resort","address":"411 Broadway, Nashville, TN 37203","position":{"lat":36.160401,"lng":-86.777432},"image":"images/paradise.jpg","yelpId":"paradise-park-nashville"},{"name":"McDougal's Chicken Fingers & Wings","address":"2115 Belcourt Ave, Nashville, TN 37212","position":{"lat":36.136535,"lng":-86.802233},"image":"images/mcdougals.jpg","yelpId":"mcdougals-chicken-fingers-and-wings-nashville"},{"name":"Moore's Famous Chicken","address":"115 Walton Ferry Rd, Hendersonville, TN 37075","position":{"lat":36.302872,"lng":-86.619401},"image":"images/moores.jpg","yelpId":"moores-famous-fried-chicken-hendersonville"},{"name":"Arnold's","address":"605 8th Ave S, Nashville, TN 37203","position":{"lat":36.151466,"lng":-86.779609},"image":"images/arnolds.jpg","yelpId":"arnolds-country-kitchen-nashville"},{"name":"Harold's Chicken","address":"811 Dickerson Pike, Nashville, TN 37207","position":{"lat":36.245236,"lng":-86.749703},"image":"images/harolds.jpg","yelpId":"harolds-chicken-nashville-nashville"},{"name":"Wingbasket - Nolensville Pike","address":"5753 Nolensville Pike, Nashville, TN 37211","position":{"lat":36.047155,"lng":-86.715143},"image":"images/wingbasket.jpg","yelpId":"wingbasket-nashville-2"},{"name":"Wingbasket - Madison","address":"1775 Gallatin Pike N, Madison, TN 37115","position":{"lat":36.295596,"lng":-86.702109},"image":"images/wingbasket_mad.jpg","yelpId":"wingbasket-madison"},{"name":"Party Fowl","address":"719 8th Ave S, Nashville, TN 37203","position":{"lat":36.149927,"lng":-86.779407},"image":"images/partyfowl.jpg","yelpId":"party-fowl-nashville-2"},{"name":"Silo","address":"1121 5th Ave N, Nashville, TN 37208","position":{"lat":36.17512,"lng":-86.788109},"image":"images/silos.jpg","yelpId":"silo-nashville"},{"name":"Edley's East","address":"908 Main Street, Nashville, TN 37206","position":{"lat":36.175919,"lng":-86.756343},"image":"images/edleys.jpg","yelpId":"edleys-east-bbq-nashville"},{"name":"Edley's 12 South","address":"2706 12th Ave S, Nashville, TN 37204","position":{"lat":36.122841,"lng":-86.789829},"image":"images/edleys_12th.jpg","yelpId":"edleys-bar-b-que-nashville"}]}